[
    {"id": "B01", "name": "의료과학관", "code": "1", "lat": 36.7712, "lng": 126.9321, "nicknames": ["의대", "의과대"]},
    {"id": "B02", "name": "자연과학관", "code": "3", "lat": 36.7695, "lng": 126.9300, "nicknames": ["자연대", "자과관"]},
    {"id": "B03", "name": "I'Design관", "code": "5", "lat": 36.7705, "lng": 126.9323, "nicknames": ["아이디자인관", "디자인관"]},
    {"id": "B04", "name": "인문과학관", "code": "6", "lat": 36.7684, "lng": 126.9275, "nicknames": ["인문관", "인문대"]},
    {"id": "B05", "name": "교육과학관", "code": "7", "lat": 36.7707, "lng": 126.9331, "nicknames": ["교과관"]},
    {"id": "B06", "name": "공학관", "code": "9", "lat": 36.7692, "lng": 126.9321, "nicknames": ["공대", "공학"]},
    {"id": "B07", "name": "산업협력관", "code": "B", "lat": 36.7700, "lng": 126.9335, "nicknames": ["산학관", "산협관"]},
    {"id": "B08", "name": "BRIX관", "code": "BI", "lat": 36.7703, "lng": 126.9342, "nicknames": ["브릭스관"]},
    {"id": "B09", "name": "지역혁신관", "code": "C", "lat": 36.7704, "lng": 126.9340},
    {"id": "B10", "name": "실내체육관", "code": "G", "lat": 36.7705, "lng": 126.9304, "nicknames": ["체육관"]},
    {"id": "B11", "name": "학예관", "code": "H", "lat": 36.7696, "lng": 126.9342, "nicknames": ["학생회관구관"]},
    {"id": "B12", "name": "향설도서관", "code": "L", "lat": 36.7688, "lng": 126.9307, "nicknames": ["도서관"]},
    {"id": "B13", "name": "멀티미디어관", "code": "M", "lat": 36.7690, "lng": 126.9348, "nicknames": ["멀미"]},
    {"id": "B14", "name": "SCH미디어랩스관", "code": "ML", "lat": 36.7720, "lng": 126.9317, "nicknames": ["미랩"]},
    {"id": "B15", "name": "학군단", "code": "R", "lat": 36.7714, "lng": 126.9309, "nicknames": ["ROTC"]},
    {"id": "B16", "name": "향설생활관1", "code": "RC", "lat": 36.7685, "lng": 126.9322, "nicknames": ["향설1관", "향1"]},
    {"id": "B17", "name": "유니토피아관", "code": "U", "lat": 36.7692, "lng": 126.9335, "nicknames": ["유토피아관"]},
    {"id": "B18", "name": "대운동장", "code": "X000", "lat": 36.7699, "lng": 126.9291, "nicknames": ["운동장"]},
    {"id": "B19", "name": "소운동장", "code": "X001", "lat": 36.7707, "lng": 126.9312},
    {"id": "B20", "name": "테니스코트1", "code": "X002", "lat": 36.7712, "lng": 126.9301},
    {"id": "B21", "name": "테니스코트2", "code": "X003", "lat": 36.7719, "lng": 126.9341},
    {"id": "B22", "name": "수영장", "code": "X004", "lat": null, "lng": null},
    {"id": "B23", "name": "골프장", "code": "X005", "lat": null, "lng": null},
    {"id": "B24", "name": "학내가상", "code": "X006", "lat": null, "lng": null},
    {"id": "B25", "name": "체육관", "code": "X008", "lat": 36.7705, "lng": 126.9313},
    {"id": "B26", "name": "유도장", "code": "X012", "lat": null, "lng": null},
    {"id": "B27", "name": "병원실습", "code": "X013", "lat": null, "lng": null},
    {"id": "B28", "name": "볼링장", "code": "X014", "lat": null, "lng": null},
    {"id": "B29", "name": "인턴쉽", "code": "X015", "lat": null, "lng": null},
    {"id": "B30", "name": "현장실습", "code": "X016", "lat": null, "lng": null},
    {"id": "B31", "name": "스쿼시장", "code": "X017", "lat": null, "lng": null},
    {"id": "B32", "name": "서울&천안 의학관", "code": "S/Y", "lat": null, "lng": null},
    {"id": "B33", "name": "천안의대 교육관", "code": "E", "lat": null, "lng": null},
    {"id": "B34", "name": "향설생활관2", "code": "", "lat": 36.7679, "lng": 126.9335, "nicknames": ["향설2관", "향2"]},
    {"id": "B35", "name": "향설생활관3", "code": "", "lat": 36.7678, "lng": 126.9346, "nicknames": ["향설3관", "향3"]},
    {"id": "B36", "name": "글로벌빌리지", "code": "", "lat": 36.7672, "lng": 126.9337, "nicknames": ["글빌"]},
    {"id": "B37", "name": "학성사1", "code": "", "lat": 36.7723, "lng": 126.9335},
    {"id": "B38", "name": "학성사2", "code": "", "lat": 36.7719, "lng": 126.9336},
    {"id": "B39", "name": "학성사3", "code": "", "lat": 36.7714, "lng": 126.9342},
    {"id": "B40", "name": "후문(향설동문)", "code": "", "lat": 36.7732, "lng": 126.9335},
    {"id": "B41", "name": "정문(서문)", "code": "", "lat": 36.7693, "lng": 126.9276},
    {"id": "B42", "name": "피닉스광장", "code": "", "lat": 36.7719, "lng": 126.9327},
    {"id": "B43", "name": "한승우 라운지", "code": "", "lat": 36.7728, "lng": 126.9333},
    {"id": "B44", "name": "학생회관", "code": "", "lat": 36.7699, "lng": 126.9314, "nicknames": ["학관"]},
    {"id": "B45", "name": "한마루관", "code": "", "lat": 36.7711, "lng": 126.9335, "nicknames": ["교직원식당"]},
    {"id": "B46", "name": "앙뜨레프레너관", "code": "", "lat": 36.7688, "lng": 126.9341},
    {"id": "B47", "name": "국제교육원", "code": "", "lat": 36.7705, "lng": 126.9325, "nicknames": ["국교원"]},
    {"id": "B48", "name": "대학본관", "code": "", "lat": 36.7683, "lng": 126.9290, "nicknames": ["본관", "본부", "대학본부"]}
]